{"stores":[{"STORE_ID":113,"STORE_NAME":"Store ABC","PHONE":"+123456789","ADDRESS1":"Shopping Centre, Unit 425","CITY":"Zaandam","COUNTRY":"NL","ZIPCODE":"5545 EG","STLOCATTR":{"LANGUAGE_ID":44,"OPENINGHOURS":"MON 09:00-21:00~~TUE 09:00-21:00~~WED 09:00-21:00~~THU 09:00-21:00~~FRI 09:00-21:00~~SAT CLOSED~~SUN CLOSED"},"LOCATION":{"LAT":"52.35974","LNG":"40.87914"},"COUNTRYCODE":"NL"},{"STORE_ID":1963,"STORE_NAME":"Store XYZ","PHONE":"+123466789","ADDRESS1":"Shopping Centre, Unit 512","CITY":"Amsterdam","COUNTRY":"NL","ZIPCODE":"1155 EG","STLOCATTR":{"LANGUAGE_ID":44,"OPENINGHOURS":"MON 09:00-21:00~~TUE 09:00-21:00~~WED 09:00-21:00~~THU 09:00-21:00~~FRI 09:00-21:00~~SAT 09:00-21:00~~SUN 09:00-20:00"},"LOCATION":{"LAT":"12.35973","LNG":"14.87937"},"COUNTRYCODE":"NL"},{"STORE_ID":1903,"STORE_NAME":"Store XYZ","PHONE":"+123466789","ADDRESS1":"Shopping Centre, Unit 512","CITY":"Amsterdam","COUNTRY":"NL","ZIPCODE":"1155 EG","STLOCATTR":{"LANGUAGE_ID":44,"OPENINGHOURS":"MON 09:00-21:00~~TUE 09:00-21:00~~WED 09:00-21:00~~THU 09:00-21:00~~FRI 09:00-21:00~~SAT 09:00-21:00~~SUN 09:00-20:00"},"LOCATION":{"LAT":"12.35973","LNG":"14.87937"},"COUNTRYCODE":"NL"},{"STORE_ID":1603,"STORE_NAME":"Store XYZ","PHONE":"+123466789","ADDRESS1":"Shopping Centre, Unit 512","CITY":"Amsterdam","COUNTRY":"NL","ZIPCODE":"1155 EG","STLOCATTR":{"LANGUAGE_ID":44,"OPENINGHOURS":"MON 09:00-21:00~~TUE 09:00-21:00~~WED 09:00-21:00~~THU 09:00-21:00~~FRI 09:00-21:00~~SAT 09:00-23:50~~SUN 09:00-20:00"},"LOCATION":{"LAT":"12.35973","LNG":"14.87937"},"COUNTRYCODE":"NL"}]}